City_ID,City,Lat,Lng,Max Temp,Humidity,Cloudiness,Wind Speed,Country,Date
0,telciu,47.4333,24.4,59.7,86,24,3.36,RO,1723084859
1,adamstown,-25.066,-130.1015,67.05,65,94,3.91,PN,1723084355
2,alotau,-10.3069,150.4462,82.17,70,79,6.89,PG,1723084861
3,isafjordur,66.0755,-23.124,44.15,87,100,2.1,IS,1723084758
4,guna,24.65,77.3167,74.08,99,100,5.01,IN,1723084863
5,blackmans bay,-43.0167,147.3167,55.72,65,100,3.0,AU,1723084353
6,bay city,43.5945,-83.8889,64.62,76,0,5.75,US,1723084816
7,grytviken,-54.2811,-36.5092,13.98,74,21,10.47,GS,1723084354
8,lazaro cardenas,17.9583,-102.2,82.6,80,100,7.81,MX,1723084844
9,bilibino,68.0546,166.4372,58.41,37,16,10.74,RU,1723084815
10,lancaster,40.2504,-76.2499,67.28,92,100,10.36,US,1723084872
11,nuuk,64.1835,-51.7216,39.81,100,100,5.75,GL,1723084873
12,west island,-12.1568,96.8225,82.38,69,20,14.97,CC,1723084387
13,jamestown,42.097,-79.2353,67.64,88,100,8.05,US,1723084589
14,bethel,41.3712,-73.414,65.55,89,99,2.19,US,1723084174
15,st. john's,47.5649,-52.7093,62.78,91,0,18.41,CA,1723084201
16,punta arenas,-53.15,-70.9167,35.71,80,100,10.36,CL,1723084501
17,ankazoabo,-22.2833,44.5167,60.91,74,0,3.0,MG,1723084880
18,ribeira grande,38.5167,-28.7,72.77,80,0,8.01,PT,1723084356
19,bredasdorp,-34.5322,20.0403,46.67,95,0,4.59,ZA,1723084429
20,camapua,-19.5314,-54.0439,71.24,36,4,0.76,BR,1723084883
21,tofol,5.3248,163.0078,84.13,71,54,9.48,FM,1723084884
22,tiksi,71.6872,128.8694,43.97,92,100,3.15,RU,1723084347
23,petropavlovsk-kamchatsky,53.0452,158.6483,79.39,47,75,13.42,RU,1723084887
24,albany,42.6001,-73.9662,65.44,78,2,4.18,US,1723084112
25,edinburgh of the seven seas,-37.0676,-12.3116,48.54,53,100,24.32,SH,1723084372
26,castillos,-34.1667,-53.8333,45.66,83,35,7.0,UY,1723084890
27,alofi,-19.0595,-169.9187,76.89,61,40,17.27,NU,1723084891
28,kawm umbu,24.4767,32.9463,90.01,31,100,3.42,EG,1723084893
29,sinop,41.7711,34.8709,59.79,90,0,2.82,TR,1723084894
30,salmon arm,50.6998,-119.3024,83.52,34,8,1.14,CA,1723084895
31,waitangi,-43.9535,-176.5597,53.82,73,32,7.0,NZ,1723084448
32,happy valley-goose bay,53.3168,-60.3315,53.91,94,75,5.75,CA,1723084897
33,port-aux-francais,-49.35,70.2167,33.06,96,100,24.79,TF,1723084225
34,georgetown,5.4112,100.3354,85.93,68,20,6.91,MY,1723084206
35,ilulissat,69.2167,-51.1,39.22,100,100,0.0,GL,1723084451
36,panaba,21.2833,-88.2667,76.95,91,37,5.44,MX,1723084902
37,dubbo,-32.25,148.6167,62.73,63,75,13.8,AU,1723084903
38,hawaiian paradise park,19.5933,-154.9731,81.91,73,100,11.5,US,1723084443
39,puerto natales,-51.7236,-72.4875,32.45,80,75,2.3,CL,1723084266
40,praia da vitoria,38.7333,-27.0667,71.85,83,40,4.79,PT,1723084907
41,kavaratti,10.5669,72.642,80.78,84,100,11.92,IN,1723084908
42,udachny,66.4167,112.4,72.68,47,100,20.4,RU,1723084909
43,hanzhong,33.0728,107.0303,82.76,80,100,5.08,CN,1723084344
44,lompoc,34.6391,-120.4579,72.7,73,0,12.66,US,1723084911
45,holualoa,19.6228,-155.9522,77.56,77,26,4.88,US,1723084912
46,luderitz,-26.6481,15.1594,49.86,83,0,5.99,NA,1723084790
47,wailea,19.8858,-155.123,81.63,84,100,11.5,US,1723084915
48,keflavik,64.0049,-22.5624,48.63,93,0,6.91,IS,1723084916
49,haiku-pauwela,20.9219,-156.3051,83.21,71,20,26.46,US,1723084918
50,tamiahua,21.2667,-97.45,80.6,87,14,7.92,MX,1723084919
51,stanley,54.868,-1.6985,56.28,84,0,8.05,GB,1723084832
52,invercargill,-46.4,168.35,48.02,79,59,8.01,NZ,1723084809
53,laguna,38.421,-121.4238,93.69,33,0,9.22,US,1723084923
54,avarua,-21.2078,-159.775,75.25,60,20,10.36,CK,1723084775
55,wailua homesteads,22.0669,-159.378,83.19,71,20,14.97,US,1723084814
56,san patricio,28.017,-97.5169,87.69,62,0,12.26,US,1723084364
57,tazacorte,28.629,-17.9293,74.37,86,20,14.97,ES,1723084927
58,rajula,21.05,71.4333,81.97,77,100,13.44,IN,1723084929
59,road town,18.4167,-64.6167,82.44,78,20,9.22,VG,1723084930
60,jiazi,22.8779,116.067,87.3,76,13,17.96,CN,1723084931
61,port mathurin,-19.6833,63.4167,72.14,74,17,12.41,MU,1723084382
62,tshela,-4.9833,12.9333,64.58,95,9,1.92,CD,1723084933
63,mejit,10.2753,170.8646,81.84,76,94,8.39,MH,1723084434
64,afaahiti,-17.75,-149.2833,80.06,82,6,17.38,PF,1723084936
65,peterhead,57.5058,-1.7981,54.0,77,49,13.91,GB,1723084937
66,ar rahad,12.7167,30.65,76.21,81,100,11.86,SD,1723084938
67,port saint john's,-31.6229,29.5448,64.08,32,0,6.91,ZA,1723084416
68,iqaluit,63.7506,-68.5145,46.13,76,20,3.44,CA,1723084224
69,chonchi,-42.6128,-73.8092,40.21,97,22,1.14,CL,1723084941
70,vadso,70.0744,29.7487,54.48,71,0,4.61,NO,1723084943
71,mata-utu,-13.2816,-176.1745,78.35,71,100,22.1,WF,1723084944
72,kegen,43.0197,79.2203,68.5,34,2,4.14,KZ,1723084945
73,ta`u,-14.2336,-169.5144,77.25,77,81,21.7,AS,1723084946
74,chernyshevskiy,63.0128,112.4714,72.41,46,32,7.74,RU,1723084947
75,soio,-6.1349,12.3689,69.58,86,47,7.4,AO,1723084948
76,lebu,-37.6167,-73.65,42.87,90,8,6.87,CL,1723084351
77,dampit,-8.2116,112.7493,81.36,63,45,8.28,ID,1723084951
78,chibougamau,49.9168,-74.3659,55.02,88,40,0.0,CA,1723084952
79,kitimat,54.0524,-128.6534,89.98,62,1,5.99,CA,1723084953
80,amungan,15.3652,119.9582,84.54,75,79,7.4,PH,1723084954
81,thompson,55.7435,-97.8558,59.16,63,75,5.75,CA,1723084851
82,ebon,4.582,168.6964,80.96,75,100,1.59,MH,1723084957
83,villa gesell,-37.2639,-56.973,48.06,94,100,13.06,AR,1723084706
84,kununurra,-15.7667,128.7333,87.78,27,2,13.8,AU,1723084410
85,college,64.8569,-147.8028,77.32,55,98,3.38,US,1723084833
86,san luis de la loma,17.2706,-100.8939,81.59,84,100,8.95,MX,1723084356
87,kodiak,57.79,-152.4072,60.31,77,40,4.61,US,1723084871
88,pangkalanbuun,-2.6833,111.6167,86.32,63,57,4.38,ID,1723084964
89,vorgashor,67.5833,63.95,51.85,59,26,3.8,RU,1723084375
90,cameta,-2.2444,-49.4958,78.78,73,13,6.08,BR,1723084966
91,olonkinbyen,70.9221,-8.7187,41.68,100,100,8.81,SJ,1723084967
92,callao,-12.0667,-77.15,61.72,77,100,6.91,PE,1723084968
93,yellowknife,62.456,-114.3525,70.32,37,20,11.5,CA,1723084794
94,port elizabeth,-33.918,25.5701,57.49,95,20,11.5,ZA,1723084971
95,puerto ayora,-0.7393,-90.3518,66.54,97,86,7.0,EC,1723084275
96,tazovsky,67.4667,78.7,49.37,70,52,12.3,RU,1723084764
97,nantucket,41.2835,-70.0995,64.54,90,0,5.75,US,1723084969
98,dudinka,69.4058,86.1778,56.91,49,10,21.88,RU,1723084367
99,pathein,16.7833,94.7333,79.3,89,100,3.87,MM,1723084976
100,stellenbosch,-33.9346,18.8668,55.6,86,32,7.74,ZA,1723084977
101,margaret river,-33.95,115.0667,59.29,65,100,13.6,AU,1723084835
102,mitsamiouli,-11.3847,43.2844,76.12,69,33,6.46,KM,1723084980
103,bulungu,-4.55,18.6,73.2,45,31,2.57,CD,1723084981
104,warmbad,-28.45,18.7333,48.33,62,2,4.27,NA,1723084983
105,lihue,21.9789,-159.3672,83.79,63,20,14.97,US,1723084985
106,utrik,11.2278,169.8474,82.65,78,20,13.27,MH,1723084829
107,ryotsu-minato,38.0833,138.4333,80.49,70,1,3.18,JP,1723084987
108,recani,31.2846,-4.2688,90.16,14,56,7.0,MA,1723084988
109,praia,14.9215,-23.5087,77.54,83,75,17.27,CV,1723084989
110,kayangel,8.0823,134.7173,83.98,75,93,12.03,PW,1723084990
111,la passe,45.5549,-0.8967,62.83,84,84,7.25,FR,1723084992
112,tarrafal de sao nicolau,16.5667,-24.3667,75.58,75,100,12.37,CV,1723084993
113,manbij,36.5281,37.9549,77.59,69,0,13.47,SY,1723084994
114,zhangye,38.9342,100.4517,79.7,27,100,28.32,CN,1723084995
115,sabang,5.8933,95.3214,83.95,74,100,8.84,ID,1723084996
116,port alfred,-33.5906,26.891,58.91,70,0,9.33,ZA,1723084932
117,kasaragod,12.5,75.0,75.83,90,100,2.26,IN,1723084754
118,port blair,11.6667,92.75,86.04,79,75,9.22,IN,1723085000
119,rapar,23.5667,70.6333,82.63,75,95,16.58,IN,1723085001
120,biltine,14.5333,20.9167,76.19,81,100,5.53,TD,1723085002
121,manokwari,-0.8667,134.0833,84.09,67,43,6.53,ID,1723085003
122,fale old settlement,-9.3852,-171.2468,81.95,73,94,19.55,TK,1723084447
123,fortaleza,-3.7227,-38.5247,80.22,83,75,13.8,BR,1723085006
124,taltal,-25.4,-70.4833,58.39,60,0,5.14,CL,1723085007
125,constantia,44.1833,28.65,63.7,75,0,3.18,RO,1723085008
126,carnarvon,-24.8667,113.6333,68.94,56,4,8.86,AU,1723085009
127,whitehorse,60.7161,-135.0538,82.02,30,0,12.66,CA,1723084871
128,meulaboh,4.1363,96.1285,79.66,82,94,3.71,ID,1723085011
129,trinity beach,-16.7888,145.6968,79.81,72,100,13.15,AU,1723085013
130,opuwo,-18.0607,13.84,60.91,35,0,4.0,NA,1723085014
131,kotputli,27.7167,76.2,80.02,83,100,5.7,IN,1723085015
132,inari,68.906,27.0288,44.8,62,2,4.47,FI,1723085016
133,ruayer,43.0537,-5.5502,60.58,86,33,0.89,ES,1723085017
134,labrador city,52.9463,-66.9114,48.18,85,75,11.01,CA,1723084844
135,enewetak,11.3474,162.3373,83.84,75,87,10.78,MH,1723085020
136,liezen,47.5667,14.2333,61.66,95,100,3.6,AT,1723084814
137,george town,5.4112,100.3354,85.93,69,20,6.91,MY,1723084887
138,rabo de peixe,37.8,-25.5833,72.91,88,75,8.05,PT,1723085023
139,nemuro,43.3236,145.575,63.28,100,100,5.19,JP,1723085024
140,koraput,18.8167,82.7167,69.4,95,100,6.46,IN,1723085025
141,dakhla,23.6848,-15.958,67.35,88,11,20.13,EH,1723084838
142,jiuquan,39.7432,98.5174,76.55,36,100,22.7,CN,1723085028
143,namie,37.4833,141.0,86.99,75,72,1.01,JP,1723085029
144,champerico,14.3,-91.9167,83.59,79,100,3.91,GT,1723084934
145,shuangjiang,26.1547,109.7138,88.3,52,16,10.36,CN,1723085031
146,kroya,-7.6331,109.2461,86.43,73,80,13.33,ID,1723085032
147,vilyuchinsk,52.9306,158.4028,82.67,78,28,11.74,RU,1723085034
148,reidsville,36.3549,-79.6645,76.17,94,100,5.75,US,1723085035
149,digne-les-bains,44.0833,6.25,66.29,66,19,5.06,FR,1723085036
150,susuman,62.7833,148.1667,51.26,85,100,1.48,RU,1723084914
151,ust-nera,64.5667,143.2,57.09,77,98,1.59,RU,1723084828
152,diapaga,12.0708,1.7889,73.29,87,100,7.07,BF,1723085039
153,amilly,47.9728,2.7719,60.06,74,100,3.24,FR,1723085041
154,monte cristo,-31.3431,-63.9444,46.76,52,18,13.35,AR,1723085042
155,caconda,-13.7333,15.0667,55.92,54,6,1.32,AO,1723085043
156,birao,10.2849,22.7882,71.94,95,100,4.29,CF,1723085044
157,vinnytsia,49.2328,28.481,67.93,63,100,4.18,UA,1723085045
158,muroto-misakicho,33.2833,134.15,83.98,72,1,5.84,JP,1723085047
159,krasnyy chikoy,50.3643,108.7512,70.25,65,98,2.68,RU,1723085048
160,sim,54.993,57.6982,61.41,95,28,3.44,RU,1723085049
161,punch,33.7679,74.0897,77.81,81,2,4.29,IN,1723085050
162,acarau,-2.8856,-40.12,77.9,85,16,16.67,BR,1723085051
163,puerto santa,-8.9906,-78.6456,61.75,88,86,7.94,PE,1723085052
164,bethanie,-26.4833,17.15,49.05,29,9,5.59,NA,1723085054
165,ha'il,27.5219,41.6907,77.02,20,0,4.61,SA,1723085055
166,preobrazheniye,42.9019,133.9064,80.04,72,99,5.28,RU,1723085056
167,colon,9.3592,-79.9014,81.09,90,100,4.0,PA,1723085057
168,melekeok village,7.4957,134.6367,82.96,94,100,4.61,PW,1723085058
169,kapoeta,4.7717,33.5903,73.72,74,97,6.46,SS,1723085059
170,tchintabaraden,15.8969,5.7985,81.43,58,100,9.89,NE,1723085062
171,ostersund,63.1792,14.6357,61.25,96,75,11.5,SE,1723085063
172,ancud,-41.8697,-73.8203,39.92,89,4,3.98,CL,1723085065
173,cabo san lucas,22.8909,-109.9124,87.1,73,0,18.41,MX,1723084807
174,papatowai,-46.5619,169.4708,47.68,76,61,9.53,NZ,1723085067
175,napoleon,41.3923,-84.1252,70.03,77,0,7.76,US,1723084967
176,veselynove,47.3567,31.2349,67.51,58,38,3.11,UA,1723085069
177,rantauprapat,2.1,99.8333,79.59,86,100,2.37,ID,1723085072
178,bardai,11.65,7.2333,69.96,95,100,9.22,NG,1723084948
179,amga,60.8953,131.9608,68.81,42,1,3.6,RU,1723085074
180,saint-pierre,-21.3393,55.4781,64.08,63,0,3.44,RE,1723085075
181,remire-montjoly,4.9167,-52.2667,78.84,94,0,2.3,GF,1723085076
182,deqen,29.9618,90.7188,56.79,62,100,4.25,CN,1723085077
183,ulsteinvik,62.3432,5.8487,60.93,70,78,5.99,NO,1723085079
184,santa terezinha,-29.9002,-50.0904,60.22,97,100,4.99,BR,1723085080
185,juneau,58.3019,-134.4197,78.8,100,0,5.75,US,1723085081
186,talnakh,69.4865,88.3972,60.84,52,3,7.0,RU,1723085082
187,semnan,35.5729,53.3971,90.75,15,64,3.53,IR,1723085083
188,vernon,50.2581,-119.2691,84.56,26,17,0.0,CA,1723084884
189,sakata,38.9167,139.855,82.58,74,20,8.05,JP,1723085086
190,souillac,-20.5167,57.5167,71.98,73,40,4.61,MU,1723085087
191,poronaysk,49.2167,143.1167,60.85,98,100,5.39,RU,1723085088
192,at taj,24.2049,23.2857,82.54,20,8,10.92,LY,1723085089
193,iquique,-20.2208,-70.1431,60.84,81,18,4.88,CL,1723085090
194,trairi,-3.2778,-39.2689,77.27,83,38,11.12,BR,1723084887
195,stayton,44.8007,-122.7945,84.94,50,100,6.58,US,1723085093
196,auki,-8.7676,160.7034,80.47,86,100,5.5,SB,1723085094
197,yaren,-0.5472,166.916,83.44,72,65,8.43,NR,1723085095
198,tolanaro,-25.0319,46.9987,68.07,94,75,11.5,MG,1723085052
199,hopelchen,19.7667,-89.85,74.19,99,92,4.23,MX,1723085040
200,post,33.1909,-101.3782,92.97,21,84,9.17,US,1723085099
201,peace river,56.2501,-117.286,73.71,53,0,3.44,CA,1723084933
202,coquimbo,-29.9533,-71.3436,53.33,73,100,2.3,CL,1723085101
203,pingzhuang,42.0372,119.2889,83.61,51,7,4.83,CN,1723085102
204,longyearbyen,78.2186,15.6401,51.64,93,75,0.0,SJ,1723085103
205,cannonvale,-20.2833,148.7,76.59,72,44,16.37,AU,1723085104
206,shunyi,40.125,116.6453,87.75,62,0,2.24,CN,1723085106
207,zhoushan,30.0108,122.2047,85.44,73,6,11.9,CN,1723085107
208,kone,-21.0595,164.8658,75.11,54,90,8.68,NC,1723085108
209,medicine hat,50.0501,-110.6683,64.83,56,75,5.99,CA,1723085109
210,shetpe,44.1667,52.1167,80.31,49,10,21.09,KZ,1723085110
211,bel ombre,-4.6167,55.4167,78.64,89,20,12.66,SC,1723085111
212,yuzhno-kurilsk,44.0306,145.8556,64.8,99,100,3.69,RU,1723085113
213,anadyr,64.75,177.4833,48.7,76,40,8.95,RU,1723085114
214,portovelo,-3.7167,-79.6167,70.11,92,90,0.76,EC,1723085115
215,batticaloa,7.7102,81.6924,83.79,71,57,1.3,LK,1723085116
216,colonia,50.9333,6.95,64.81,86,0,4.61,DE,1723085090
217,rawson,-43.3002,-65.1023,38.82,67,0,0.96,AR,1723085118
218,ushuaia,-54.8,-68.3,33.46,80,40,2.3,AR,1723085120
219,porto novo,6.4965,2.6036,76.82,85,100,7.47,BJ,1723085121
220,nar'yan-mar,67.6713,53.087,49.39,69,0,5.17,RU,1723084925
221,aripuana,-9.1667,-60.6333,73.42,48,3,1.57,BR,1723085123
222,qaqortoq,60.7167,-46.0333,44.74,93,100,5.12,GL,1723085053
223,sitka,57.0531,-135.33,62.49,82,20,3.44,US,1723085125
224,hamilton,39.1834,-84.5333,76.05,79,0,8.05,US,1723085127
225,boca do acre,-8.7522,-67.3978,78.37,64,66,2.28,BR,1723085128
226,saipan,15.1355,145.701,90.3,70,40,8.05,MP,1723085129
227,boguchany,58.3814,97.4531,64.08,92,99,5.14,RU,1723085130
228,vila velha,-20.3297,-40.2925,73.35,88,0,6.91,BR,1723085131
229,san antonio de pale,-1.4014,5.6325,72.77,82,100,12.55,GQ,1723085133
230,iskateley,67.6803,53.1512,49.33,69,0,5.14,RU,1723085134
231,el bauga,18.262,33.9081,80.46,71,69,7.7,SD,1723085135
232,dodge city,37.7528,-100.0171,89.26,57,3,11.01,US,1723085136
233,kapa'a,22.0752,-159.319,84.52,68,20,14.97,US,1723085137
234,el granada,37.5027,-122.4694,72.45,86,100,23.02,US,1723085138
235,westport,41.1415,-73.3579,66.85,87,100,6.91,US,1723084893
236,touros,-5.1989,-35.4608,73.76,85,9,10.63,BR,1723085142
237,mushie,-3.0167,16.9,74.8,53,89,4.68,CD,1723085143
238,faridnagar,28.7667,77.6167,82.58,83,56,7.11,IN,1723085144
239,bridgewater,44.3835,-64.5155,60.12,92,0,3.44,CA,1723085145
240,brazzaville,-4.2658,15.2832,71.91,83,54,3.44,CG,1723085147
241,hermanus,-34.4187,19.2345,52.32,86,0,7.02,ZA,1723085148
242,torquay,50.4638,-3.5143,59.76,90,10,4.0,GB,1723085149
243,verkhnevilyuysk,63.4453,120.3167,68.74,42,6,3.58,RU,1723085151
244,victorica,-36.2151,-65.4359,38.61,93,100,19.44,AR,1723085152
245,vilyuysk,63.7553,121.6247,67.71,43,8,0.45,RU,1723085154
246,atafu village,-8.5421,-172.5159,82.92,69,2,19.98,TK,1723085155
247,natal,-5.795,-35.2094,72.25,88,20,4.61,BR,1723085156
248,ivdel',60.6911,60.4206,51.6,75,0,5.14,RU,1723085157
249,cidreira,-30.1811,-50.2056,60.3,96,100,5.88,BR,1723085158
250,olyokminsk,60.3736,120.4264,76.62,33,10,5.06,RU,1723085159
251,sisimiut,66.9395,-53.6735,41.81,89,26,13.96,GL,1723085161
252,roma,43.2128,-75.4557,65.88,87,0,0.0,US,1723085162
253,mapimi,25.8167,-103.85,84.4,31,5,2.51,MX,1723085163
254,vuktyl,63.8567,57.3094,55.8,61,2,3.0,RU,1723085164
255,mount gambier,-37.8333,140.7667,51.78,75,100,11.03,AU,1723085165
256,argo,37.6333,22.7333,77.79,59,0,3.27,GR,1723085167
257,vorkuta,67.5,64.0,52.14,60,32,3.53,RU,1723085168
258,ar rass,25.8694,43.4973,83.14,13,93,7.18,SA,1723085169
259,katsuren-haebaru,26.3369,127.8719,91.42,76,75,10.36,JP,1723085170
260,hasaki,35.7333,140.8333,90.28,75,38,7.56,JP,1723085171
261,motueka,-41.1333,173.0167,57.09,79,44,4.52,NZ,1723085172
262,nogliki,51.8333,143.1667,56.59,99,100,12.03,RU,1723085174
263,mumford,5.2618,-0.759,72.84,91,100,12.03,GH,1723085175
264,hadibu,12.65,54.0333,78.17,85,58,18.7,YE,1723084970
265,komsomol'skiy,43.9783,46.6985,71.94,76,95,10.49,RU,1723085177
266,saldanha,-33.0117,17.9442,53.65,87,100,10.67,ZA,1723085178
267,leo,11.1,-2.1,73.56,93,100,8.08,BF,1723085180
268,antofagasta,-23.65,-70.4,56.48,72,8,6.85,CL,1723085181
269,mariental,-24.6333,17.9667,61.14,13,1,12.03,NA,1723085182
270,hithadhoo,-0.6,73.0833,82.26,73,100,6.85,MV,1723085183
271,koungheul,13.9833,-14.8,75.87,96,100,6.29,SN,1723085184
272,chipiona,36.7366,-6.437,73.62,100,100,8.05,ES,1723085185
273,maragogi,-9.0122,-35.2225,75.49,71,82,7.27,BR,1723085187
274,langepas,61.2544,75.2124,55.85,63,100,9.8,RU,1723085188
275,fortuna,40.5982,-124.1573,58.93,85,23,1.99,US,1723085189
276,bad belzig,52.1333,12.6,67.48,96,63,7.65,DE,1723085190
277,candolim,15.5181,73.7626,79.97,80,100,4.9,IN,1723085191
278,san pedro pochutla,15.7333,-96.4667,83.91,85,100,4.74,MX,1723085170
279,kingston,17.997,-76.7936,85.15,74,20,9.22,JM,1723084970
280,aasiaat,68.7098,-52.8699,38.46,94,99,7.65,GL,1723085195
281,taoudenni,22.6783,-3.9836,99.97,9,0,19.46,ML,1723085196
282,el charco,2.4769,-78.1105,75.15,92,97,3.53,CO,1723085197
283,tongchuan,35.0806,109.0897,78.62,79,100,8.37,CN,1723085198
284,mossel bay,-34.1831,22.146,46.33,88,2,3.49,ZA,1723085199
285,nizhneangarsk,55.7833,109.55,57.31,76,79,3.31,RU,1723085201
286,ouani,-12.1322,44.4258,75.11,76,49,5.32,KM,1723085202
287,zeya,53.75,127.2667,73.81,64,95,6.93,RU,1723085203
288,sassnitz,54.5167,13.65,64.8,87,100,16.64,DE,1723085204
289,letterkenny,54.95,-7.7333,47.41,98,76,3.33,IE,1723084987
290,chissamba,-12.1667,17.3333,58.87,25,11,3.47,AO,1723085207
291,san-pedro,4.7485,-6.6363,73.47,82,100,7.29,CI,1723085208
292,zarinsk,53.7074,84.9493,67.46,88,100,11.3,RU,1723085209
293,nouadhibou,20.931,-17.0347,71.58,78,55,4.61,MR,1723085210
294,nacala,-14.5428,40.6728,64.78,96,11,5.86,MZ,1723085211
295,saudarkrokur,65.7461,-19.6394,45.34,92,100,3.22,IS,1723085213
296,wanning,18.8003,110.3967,88.92,60,62,10.38,CN,1723085214
297,plettenberg bay,-34.0527,23.3716,52.11,77,4,4.99,ZA,1723085215
298,bathsheba,13.2167,-59.5167,83.01,78,20,12.66,BB,1723085216
299,ljusdal,61.8288,16.0913,58.01,98,100,3.06,SE,1723085217
300,loen,7.7601,168.2307,80.04,75,89,1.21,MH,1723085218
301,alice springs,-23.7,133.8833,76.55,27,0,5.75,AU,1723085220
302,weno,7.4515,151.8468,91.35,62,75,11.5,FM,1723085115
303,preveza,38.95,20.75,77.97,91,0,1.99,GR,1723085055
304,raahe,64.6833,24.4833,48.29,66,0,8.81,FI,1723085223
305,beira,-19.8436,34.8389,66.29,93,20,2.3,MZ,1723085224
306,akjoujt,19.6969,-14.4164,81.54,53,100,9.22,MR,1723085226
307,gokarna,14.55,74.3167,78.64,84,100,1.3,IN,1723085228
308,mili,6.0815,171.735,81.64,71,100,2.15,MH,1723085229
309,port-saint-louis-du-rhone,43.3833,4.8,75.43,73,0,2.3,FR,1723085230
310,ulanhot,46.0833,122.0833,83.5,45,41,7.94,CN,1723085231
311,lerwick,60.1545,-1.1494,55.4,88,94,29.08,GB,1723085233
312,nookat,40.2671,72.6207,77.76,23,0,2.37,KG,1723085234
313,bata,1.8639,9.7658,75.4,87,86,7.45,GQ,1723085235
314,kamuli,0.9472,33.1197,63.36,88,43,1.72,UG,1723085236
315,kourou,5.1552,-52.6478,78.85,92,42,6.89,GF,1723085237
316,corner brook,48.9667,-57.9484,59.16,90,17,6.29,CA,1723085238
317,taulaga,-11.0553,-171.0883,81.36,74,81,20.29,AS,1723085240
318,kurumkan,54.3,110.3,74.34,53,50,2.68,RU,1723085241
319,santa cruz,-17.8,-63.1667,72.86,94,75,4.61,BO,1723084974
320,talitsa,56.8804,60.0213,54.14,93,85,7.52,RU,1723084957
321,dharamsala,32.2419,76.3213,67.37,92,86,2.86,IN,1723085244
322,arraial do cabo,-22.9661,-42.0278,72.09,84,0,24.05,BR,1723085246
323,bugana,7.9992,7.5836,71.31,96,22,2.98,NG,1723085247
324,vila franca do campo,37.7167,-25.4333,73.81,88,42,6.55,PT,1723085248
325,nova sintra,14.8667,-24.7167,76.96,84,42,18.34,CV,1723085249
326,fisterra,42.9049,-9.2629,66.02,82,10,19.57,ES,1723085250
327,campanario,38.8644,-5.6174,75.24,30,2,3.18,ES,1723085251
328,cumbum,9.7333,77.3,75.47,86,99,6.6,IN,1723085253
329,la'ie,21.6477,-157.9253,87.76,72,3,10.0,US,1723085043
330,kidal,18.4411,1.4078,84.72,59,94,15.3,ML,1723085256
331,toliara,-23.35,43.6667,67.08,69,0,3.8,MG,1723085163
332,freetown,8.484,-13.2299,78.51,83,75,14.97,SL,1723085051
333,fort bragg,35.139,-79.006,76.82,96,75,18.41,US,1723085260
334,beau vallon,-20.4189,57.6953,66.22,66,51,9.71,MU,1723085261
335,taguatinga,-12.3857,-46.5711,69.04,33,0,4.34,BR,1723085262
336,antalaha,-14.9003,50.2788,69.82,66,92,6.51,MG,1723085263
337,tokombere,11.2271,13.4858,71.71,94,97,7.09,NG,1723085264
338,yulinshi,38.2906,109.7494,75.9,69,95,13.24,CN,1723085265
339,along,28.1667,94.7667,71.47,98,100,1.19,IN,1723085267
340,nanakuli,21.3906,-158.1547,87.75,54,0,11.5,US,1723085268
341,egilsstadir,65.2653,-14.3948,44.51,93,100,5.75,IS,1723085269
342,lautoka,-17.6167,177.4667,78.66,53,40,13.8,FJ,1723085271
343,chemolgan,43.1897,76.5292,73.06,22,2,3.44,KZ,1723085273
344,pacific grove,36.6177,-121.9166,65.71,89,75,6.91,US,1723085155
345,guerrero negro,27.9769,-114.0611,73.42,75,0,13.62,MX,1723085275
346,sultanah,24.4926,39.5857,91.85,29,0,4.61,SA,1723085276
347,chulym,55.0997,80.9572,67.19,85,13,6.58,RU,1723085277
348,tataouine,32.9297,10.4518,72.12,74,0,4.12,TN,1723085278
349,okhotsk,59.3833,143.3,65.03,67,13,4.63,RU,1723085280
350,vriezenveen,52.4083,6.6222,62.44,60,100,6.62,NL,1723085281
351,horta,38.5333,-28.6333,72.01,80,0,5.99,PT,1723085283
352,walvis bay,-22.9575,14.5053,53.1,93,4,3.44,NA,1723085284
353,salahonda,2.1019,-78.7217,78.85,78,99,8.84,CO,1723085286
354,alenquer,-1.9417,-54.7383,77.86,67,0,2.93,BR,1723085140
355,ketchikan,55.3422,-131.6461,73.87,49,0,5.75,US,1723085288
356,fernandina beach,30.6697,-81.4626,77.04,86,100,6.91,US,1723085289
357,choibalsan,48.0667,114.5,75.96,50,100,5.44,MN,1723085290
358,salalah,17.0151,54.0924,75.29,100,100,8.05,OM,1723085291
359,dhidhdhoo,6.8833,73.1,82.69,75,31,16.06,MV,1723085293
360,caleta de carquin,-11.0925,-77.6267,61.77,87,41,7.99,PE,1723085294
361,viqueque,-8.8673,126.3658,82.49,60,100,9.69,TL,1723085295
362,adam,22.3756,57.5233,83.32,62,16,9.91,OM,1723085296
363,gadzhiyevo,69.2551,33.3362,56.12,62,62,8.61,RU,1723085297
364,kingscliff,-28.2667,153.5667,66.94,68,100,9.22,AU,1723085300
365,vangaindrano,-23.35,47.6,67.95,87,92,2.77,MG,1723085167
366,novomykolayivka,47.9781,35.9102,64.36,71,0,4.74,UA,1723085302
367,ojinaga,29.5667,-104.4167,95.95,17,0,5.75,MX,1723085303
368,miri,4.4148,114.0089,86.14,79,40,3.44,MY,1723085304
369,kalibo (poblacion),11.7061,122.3644,87.19,58,3,3.44,PH,1723085307
370,ilhabela,-23.7781,-45.3581,73.22,50,1,4.7,BR,1723085308
371,zhangzhou,24.5133,117.6556,91.33,61,44,0.78,CN,1723085309
372,crane,31.3974,-102.3501,94.57,19,0,5.01,US,1723085310
373,new norfolk,-42.7826,147.0587,56.91,58,100,8.34,AU,1723085030
374,huarmey,-10.0681,-78.1522,62.42,86,72,8.41,PE,1723085313
375,undurkhaan,47.3194,110.6556,71.98,65,99,5.12,MN,1723085314
376,uturoa,-16.7333,-151.4333,78.71,83,36,10.47,PF,1723085315
377,itaituba,-4.2761,-55.9836,75.43,52,5,0.54,BR,1723085316
378,ocean shores,46.9737,-124.1563,62.96,93,0,11.5,US,1723085317
379,baise city,23.8997,106.6133,85.33,99,30,2.64,CN,1723085319
380,ohara,35.25,140.3833,84.09,75,23,8.75,JP,1723085320
381,tandil,-37.3217,-59.1332,42.69,94,100,14.47,AR,1723085121
382,sao gabriel da cachoeira,-0.1303,-67.0892,77.2,80,64,1.52,BR,1723085322
383,jimenez,28.3333,-105.4,84.4,37,97,6.31,MX,1723085323
384,quang ngai,15.1167,108.8,96.21,45,12,1.41,VN,1723085324
385,labytnangi,66.6572,66.4183,53.24,64,13,1.16,RU,1723085326
386,sidi ifni,29.3797,-10.173,69.55,91,53,7.29,MA,1723085327
387,tanjung selor,2.8372,117.3642,76.6,98,100,0.27,ID,1723085328
388,williamsburg,37.2707,-76.7075,78.08,83,100,9.22,US,1723085113
389,mairwa,26.2333,84.15,81.73,86,100,11.23,IN,1723085330
390,polignano a mare,40.9959,17.2159,77.72,58,0,0.92,IT,1723085331
391,usogorsk,63.4106,48.6872,55.08,59,8,4.99,RU,1723085333
392,tarko-sale,64.9225,77.785,53.15,67,100,14.94,RU,1723085334
393,kotlas,61.2611,46.6556,53.56,90,99,4.56,RU,1723085335
394,jayapura,-2.5333,140.7,83.59,66,74,6.11,ID,1723085336
395,codrington,-38.2667,141.9667,56.35,63,100,20.38,AU,1723085337
396,mtskheta,41.8451,44.7188,71.69,88,6,7.02,GE,1723085338
397,margate,51.3813,1.3862,59.31,85,41,12.08,GB,1723085168
398,jumla,29.2747,82.1838,62.91,87,96,3.27,NP,1723085341
399,lengshuitan,26.4111,111.5956,94.93,45,4,15.17,CN,1723085342
400,sumbe,-11.2061,13.8437,66.9,91,27,6.22,AO,1723085343
401,morant bay,17.8815,-76.4093,85.62,89,100,6.33,JM,1723085344
402,port douglas,-16.4833,145.4667,74.19,72,34,10.69,AU,1723085346
403,tyukhtet,56.5389,89.3011,64.81,85,66,5.5,RU,1723085347
404,puerto baquerizo moreno,-0.9,-89.6,67.5,79,91,13.42,EC,1723085348
405,palmas,-10.2128,-48.3603,71.47,56,0,2.3,BR,1723085349
406,dryden,49.7833,-92.7503,64.69,77,40,10.36,CA,1723085350
407,paracuru,-3.41,-39.0306,80.11,83,18,13.27,BR,1723085351
408,palmer,42.1584,-72.3287,62.92,81,0,0.0,US,1723085353
409,loudi,27.7344,111.9944,93.6,55,11,4.03,CN,1723085354
410,daru,-9.0763,143.2092,77.65,84,100,13.71,PG,1723085355
411,chauk,20.8833,94.8167,81.61,78,100,18.03,MM,1723085356
412,grande prairie,55.1667,-118.8027,73.58,43,20,9.22,CA,1723085357
413,hirara,24.8,125.2833,86.27,89,75,6.91,JP,1723085359
414,yel'nya,54.5786,33.1837,57.54,96,100,4.34,RU,1723085360
415,albemarle,35.3501,-80.2001,79.36,85,100,14.97,US,1723085337
416,east london,-33.0153,27.9116,64.63,37,0,5.08,ZA,1723085362
417,tangalle,6.024,80.7911,82.56,68,6,11.77,LK,1723085363
418,kavala,40.9397,24.4019,75.85,72,0,1.99,GR,1723085364
419,ola,59.5833,151.2833,57.49,79,46,7.34,RU,1723085126
420,sitangkai,4.6628,119.3928,82.13,76,100,8.52,PH,1723085367
421,geraldton,-28.7667,114.6,64.81,77,75,5.75,AU,1723085368
422,shitanjing,39.2342,106.3439,75.4,66,100,13.24,CN,1723085369
423,thinadhoo,0.5333,72.9333,78.62,88,100,17.13,MV,1723085370
424,sarangani,5.4033,125.4636,81.12,79,25,5.64,PH,1723085371
425,oneonta,42.4529,-75.0638,65.21,96,5,2.75,US,1723085179
426,saskatoon,52.1168,-106.6345,58.98,51,20,8.05,CA,1723085318
427,namibe,-15.1961,12.1522,58.41,89,7,4.79,AO,1723085375
428,kuliyapitiya,7.4688,80.0401,83.88,78,95,6.85,LK,1723085376
429,dunedin,-45.8742,170.5036,51.8,70,100,8.01,NZ,1723085377
430,vodnyy,63.5046,53.4095,55.78,59,6,2.04,RU,1723085378
431,neiafu,-18.65,-173.9833,75.88,60,20,10.36,TO,1723084805
432,woolgoolga,-30.1106,153.2007,66.07,54,13,8.57,AU,1723085381
433,kailua-kona,19.6406,-155.9956,81.28,77,25,3.0,US,1723085382
434,andergrove,-21.0833,149.1833,76.64,80,24,15.75,AU,1723085383
435,conception bay south,47.4999,-52.9981,62.55,92,60,12.44,CA,1723085384
436,biryusinsk,55.9634,97.8235,63.64,82,99,8.59,RU,1723085385
437,yamrat,10.1116,9.826,70.07,93,99,3.8,NG,1723085387
438,general pinedo,-27.3167,-61.2833,51.82,41,43,11.45,AR,1723085388
439,dodola,6.9833,39.1833,52.59,93,57,2.01,ET,1723085389
440,tvoroyri,61.5556,-6.8111,51.62,92,27,15.95,FO,1723085390
441,dwarka,22.2394,68.9678,81.99,83,97,21.61,IN,1723085391
442,kapuskasing,49.4169,-82.4331,64.49,72,100,3.44,CA,1723085394
443,san julian,21.0167,-102.1667,67.21,57,91,5.79,MX,1723085395
444,faya-largeau,17.9257,19.1043,90.18,48,100,13.13,TD,1723085396
445,tirupparangunram,9.8667,78.0667,82.36,89,20,2.3,IN,1723085397
446,sarandi grande,-33.7333,-56.3333,43.09,88,61,7.43,UY,1723085398
447,linxia chengguanzhen,35.6003,103.2064,64.08,86,100,3.11,CN,1723085399
448,pisco,-13.7,-76.2167,62.65,77,100,1.14,PE,1723085401
449,khandyga,62.6667,135.6,67.15,55,5,1.86,RU,1723085402
450,anna regina,7.2644,-58.5077,79.86,81,3,4.94,GY,1723085403
451,sainte-anne-des-monts,49.124,-66.4924,58.87,67,18,6.91,CA,1723085404
452,cidade velha,14.9167,-23.6167,77.47,83,75,17.27,CV,1723085405
453,benguela,-12.5763,13.4055,68.04,83,73,6.96,AO,1723085406
454,kudahuvadhoo,2.6708,72.8944,80.19,81,100,16.28,MV,1723085408
455,myitkyina,25.3833,97.4,75.67,98,100,0.51,MM,1723085409
456,tura,25.5198,90.2201,81.59,81,68,6.62,IN,1723085410
457,hobyo,5.3505,48.5268,74.93,85,96,18.77,SO,1723085411
458,ebaye,8.7748,167.7392,86.02,74,0,3.44,MH,1723085412
459,ialibu,-6.2821,143.9935,66.9,84,85,3.74,PG,1723085413
460,cesky brod,50.0742,14.8608,67.15,94,100,4.47,CZ,1723085415
461,ust-tsilma,65.441,52.1498,56.88,61,6,3.06,RU,1723085416
462,hurlingham,-34.5883,-58.6391,48.92,77,0,9.22,AR,1723085417
463,gidam,18.9833,81.4,74.35,95,100,2.13,IN,1723085418
464,murzuq,25.9155,13.9184,83.66,13,4,7.31,LY,1723085419
465,as suwayq,23.8494,57.4386,86.23,76,51,8.32,OM,1723085420
466,ponta delgada,37.7333,-25.6667,74.12,88,75,8.05,PT,1723085422
467,vahdat,38.5563,69.0135,79.54,44,0,2.24,TJ,1723085353
468,twon-brass,4.3151,6.2418,77.16,82,98,14.18,NG,1723085424
469,whakatane,-37.9585,176.9854,57.78,97,100,8.03,NZ,1723085425
470,serdar,38.9764,56.2757,84.4,59,71,17.54,TM,1723085427
471,broken hill,-31.95,141.4333,60.71,42,100,18.41,AU,1723085429
472,whangarei,-35.7317,174.3239,53.67,97,100,4.72,NZ,1723085233
473,wijchen,51.8,5.7167,63.12,79,100,5.75,NL,1723085431
474,sukumo,32.9333,132.7333,96.04,45,0,6.04,JP,1723085432
475,sol'tsy,58.1239,30.3238,54.84,97,7,3.98,RU,1723085434
476,buon ma thuot,12.6667,108.05,85.73,62,29,3.96,VN,1723085436
477,palikir - national government center,6.9248,158.1611,88.54,66,40,9.22,FM,1723085437
478,kimberley,-28.7323,24.7623,53.29,76,0,12.66,ZA,1723085421
479,kongwa,-6.2,36.4167,58.06,91,38,4.0,TZ,1723085439
480,san isidro,-12.1167,-77.05,61.02,83,100,6.91,PE,1723085441
481,san mateo del mar,16.2,-95.0,85.03,73,1,19.01,MX,1723085443
482,minas de marcona,-15.2119,-75.1103,49.37,91,87,13.31,PE,1723085444
483,papao,-17.75,-149.55,80.28,78,0,17.05,PF,1723085445
484,micoud,13.8167,-60.9,82.33,78,40,17.27,LC,1723085446
485,hotan,37.0997,79.9269,84.72,18,32,5.46,CN,1723085377
486,nikolayevsk-on-amure,53.1406,140.73,61.38,88,100,4.12,RU,1723085448
487,mhamid,29.82,-5.72,92.41,12,6,2.39,MA,1723085450
488,wum,6.3833,10.0667,63.81,97,100,2.8,CM,1723085451
489,shimoda,34.6667,138.95,86.36,77,28,5.97,JP,1723085452
490,mount kisco,41.2043,-73.7271,65.95,82,100,6.91,US,1723085453
491,oxapampa,-10.5775,-75.4017,58.71,97,99,1.83,PE,1723085454
492,qamdo,31.1667,97.2333,60.55,49,100,4.74,CN,1723085455
493,razole,16.4833,81.8333,82.4,77,94,6.67,IN,1723085457
494,nyurba,63.2842,118.3319,70.52,41,10,5.03,RU,1723085458
495,carutapera,-1.195,-46.02,76.19,86,78,5.19,BR,1723085373
496,gao,16.6362,1.637,80.42,68,89,16.87,ML,1723085460
497,cockburn town,21.4612,-71.1419,82.04,87,100,17.83,TC,1723085461
498,olhao,37.0286,-7.8411,77.29,64,0,2.3,PT,1723085462
499,iguape,-24.7081,-47.5553,71.44,60,74,6.58,BR,1723085464
500,khuzdar,27.7384,66.6434,78.91,58,16,3.31,PK,1723085465
501,swakopmund,-22.6833,14.5333,52.99,87,5,5.84,NA,1723085466
502,terrace,54.5163,-128.6035,89.51,25,0,9.22,CA,1723085205
503,tidjikja,18.5564,-11.4271,85.08,55,100,13.0,MR,1723085468
504,zherdevka,51.8486,41.4606,62.85,83,86,5.61,RU,1723085469
505,mangrol,21.1167,70.1167,82.15,82,57,17.25,IN,1723085471
506,yiyang,28.5892,112.3283,96.4,48,1,3.98,CN,1723085472
507,revda,56.801,59.9303,52.86,93,73,7.4,RU,1723085473
508,quellon,-43.1167,-73.6167,41.49,88,67,3.65,CL,1723085399
509,chui,-33.6971,-53.4616,50.02,75,90,8.3,UY,1723085475
510,sao miguel do araguaia,-13.275,-50.1628,74.21,30,0,4.79,BR,1723085476
511,diego de almagro,-26.3667,-70.05,48.87,53,1,3.49,CL,1723085478
512,filingue,14.3521,3.3168,76.59,74,100,7.29,NE,1723085479
513,port lincoln,-34.7333,135.8667,58.87,82,94,17.47,AU,1723085381
514,middelburg,-25.7751,29.4648,47.93,44,0,2.57,ZA,1723085481
515,coahuayana de hidalgo,18.7,-103.6583,79.93,85,99,2.08,MX,1723085482
516,nova vicosa,-17.8919,-39.3719,70.61,73,1,7.05,BR,1723085483
517,parkes,-33.1333,148.1833,64.35,42,52,12.41,AU,1723085485
518,tinajo,29.0788,-13.7081,72.48,73,100,17.27,ES,1723085486
519,wusong,30.95,117.7833,95.72,56,0,7.29,CN,1723085488
520,arnprior,45.4334,-76.3494,63.48,82,0,2.66,CA,1723085489
521,lata,40.1629,-8.3327,62.08,97,24,0.98,PT,1723085490
522,tromso,69.6496,18.957,64.42,55,0,5.75,NO,1723085492
523,namtsy,62.7161,129.6658,70.61,40,16,3.06,RU,1723085493
524,pariaman,-0.619,100.12,86.05,65,70,7.4,ID,1723085494
525,porbandar,21.6422,69.6093,82.27,82,98,17.13,IN,1723085495
526,shingu,33.7333,135.9833,87.66,66,2,7.38,JP,1723085496
527,badger,64.8,-147.5333,77.25,54,94,3.74,US,1723085498
528,spearfish,44.4908,-103.8594,65.66,68,100,11.5,US,1723085499
529,axim,4.8699,-2.2405,73.27,88,100,9.08,GH,1723085500
530,karlskrona,56.1616,15.5866,63.05,90,82,9.1,SE,1723085501
531,jingdezhen,29.2947,117.2079,95.7,50,0,2.84,CN,1723085502
532,balabac,7.9868,117.0645,86.16,67,76,6.51,PH,1723085503
533,taco pozo,-25.6167,-63.2833,58.01,31,90,7.56,AR,1723085505
534,tommot,58.9564,126.2925,72.18,51,0,4.14,RU,1723085506
535,isla mujeres,21.2311,-86.731,78.17,78,43,3.36,MX,1723085507
536,tabuk,17.4189,121.4443,89.06,63,94,4.36,PH,1723085508
537,acapulco de juarez,16.8634,-99.8901,78.4,84,100,11.16,MX,1723085357
538,chernyanka,50.9409,37.8069,59.04,92,69,7.07,RU,1723085510
539,klaksvik,62.2266,-6.589,49.12,91,95,6.98,FO,1723085512
540,lakhipur,26.0299,90.3041,83.34,83,87,3.36,IN,1723085513
541,coeur d'alene,47.6777,-116.7805,82.94,37,0,6.91,US,1723085514
542,wewak,-3.5534,143.6268,83.44,76,66,8.28,PG,1723085515
543,montevideo,-34.8335,-56.1674,50.02,81,40,10.36,UY,1723085469
544,cartagena,10.3997,-75.5144,80.22,89,20,3.44,CO,1723085297
545,calatayud,41.3535,-1.6432,73.24,77,2,3.87,ES,1723085519
546,lillehammer,61.1146,10.4674,57.88,99,97,6.73,NO,1723085520
547,ke-macina,13.9623,-5.3572,82.15,72,100,12.5,ML,1723085521
548,hammerfest,70.6634,23.6821,66.65,48,6,5.75,NO,1723085522
549,countryside,39.0409,-77.4136,77.79,94,100,5.75,US,1723085523
550,staryye ozinki,51.1786,49.6769,70.5,65,26,4.76,RU,1723085525
551,kruisfontein,-34.0033,24.7314,44.89,85,0,6.02,ZA,1723085526
552,shahrud,36.4182,54.9763,82.2,38,87,7.85,IR,1723085527
553,lubao,14.9167,120.55,87.51,67,96,9.75,PH,1723085528
554,kharan,28.5833,65.4167,88.74,45,90,8.12,PK,1723085529
555,jiangyou,31.7667,104.7167,83.28,80,84,3.2,CN,1723085530
556,tual,-5.6667,132.75,77.25,84,62,20.51,ID,1723085532
557,cifteler,39.3831,31.0392,61.02,76,0,5.32,TR,1723085533
558,sheridan,44.8333,-106.9173,59.31,96,96,4.7,US,1723085535
559,mo i rana,66.3128,14.1428,68.47,78,100,7.0,NO,1723085485
560,susanville,40.4163,-120.653,76.17,20,33,7.56,US,1723085539
561,paoua,7.2427,16.4406,68.94,89,97,1.43,CF,1723085540
562,erenhot,43.6475,111.9767,88.68,27,43,12.73,CN,1723085541
563,worland,44.0169,-107.9554,69.67,61,75,21.85,US,1723085542
564,klyuchi,52.2667,79.1667,73.18,67,99,6.49,RU,1723085376
565,olinda,-8.0089,-34.8553,78.53,65,20,8.05,BR,1723085353
